Weergave_Naam,Locatie,Kaartweergave,Categorie,Aflevering,Waarde,Latitude,Longitude,Link
Vlaams-Brabant,Vlaams-Brabant,Punt,Provincie,Provincie 21,1,50.8686516,4.7886238,https://www.grotepodcastlas.nl/aflevering/vlaams-brabant
Oost-Vlaanderen,Oost-Vlaanderen,Punt,Provincie,Provincie 20,1,51.0375423,3.811783,https://www.grotepodcastlas.nl/aflevering/oost-vlaanderen
Henegouwen,Henegouwen,Punt,Provincie,Provincie 17,1,50.36192,4.125217,https://www.grotepodcastlas.nl/aflevering/henegouwen
Luik,Luik,Punt,Provincie,Provincie 16,1,50.6450944,5.5736112,https://www.grotepodcastlas.nl/aflevering/luik
Antwerpen,Antwerpen,Punt,Provincie,Provincie 15,1,51.2211097,4.3997081,https://www.grotepodcastlas.nl/aflevering/antwerpen
Namen,Namen,Punt,Provincie,Provincie 14,1,50.4665284,4.8661892,https://www.grotepodcastlas.nl/aflevering/namen
West-Vlaanderen,West-Vlaanderen,Punt,Provincie,Provincie 13,1,51.0404747,2.9994213,https://www.grotepodcastlas.nl/aflevering/west-vlaanderen
Langs de Zuid-Chinese Zee,Langs de Zuid-Chinese Zee,Punt,Special,Special 17,1,,,https://www.grotepodcastlas.nl/aflevering/langs-de-zuid-chinese-zee
Het Suriname van Humberto Tan,Het Suriname van Humberto Tan,Punt,Special,Special 16,1,,,https://www.grotepodcastlas.nl/aflevering/het-suriname-van-humberto-tan
Eilanden: Curaçao,Eilanden: Curaçao,Land,Eilanden,Eilanden 6,1,12.1845,-68.6607923,https://www.grotepodcastlas.nl/aflevering/eilanden-curacao
Eilanden: Sint Eustatius,Eilanden: Sint Eustatius,Land,Eilanden,Eilanden 5,1,,,https://www.grotepodcastlas.nl/aflevering/eilanden-sint-eustatius
Eilanden: Bonaire,Eilanden: Bonaire,Land,Eilanden,Eilanden 4,1,,,https://www.grotepodcastlas.nl/aflevering/eilanden-bonaire
Kids: Nederland,Kids: Nederland,Land,Kids,Kids 10,1,52.3636157,4.9371087,https://www.grotepodcastlas.nl/aflevering/kids-nederland
Kids: Verenigd Koninkrijk,Kids: Verenigd Koninkrijk,Land,Kids,Kids 9,1,52.0803803,-1.9477504,https://www.grotepodcastlas.nl/aflevering/kids-verenigd-koninkrijk
Eilanden: Sint Maarten,Eilanden: Sint Maarten,Land,Eilanden,Eilanden 3,1,18.0648184,-63.0491711,https://www.grotepodcastlas.nl/aflevering/eilanden-sint-maarten
Kids: Spanje,Kids: Spanje,Land,Kids,Kids 8,1,41.6894523,2.2779868,https://www.grotepodcastlas.nl/aflevering/kids-spanje
Kids: Oostenrijk,Kids: Oostenrijk,Land,Kids,Kids 7,1,47.8483283,13.0171421,https://www.grotepodcastlas.nl/aflevering/kids-oostenrijk
Eilanden: Saba,Eilanden: Saba,Land,Eilanden,Eilanden 2,1,27.7690351,-15.5443431,https://www.grotepodcastlas.nl/aflevering/eilanden-saba
Kids: Denemarken,Kids: Denemarken,Land,Kids,Kids 6,1,55.8607815,9.8462393,https://www.grotepodcastlas.nl/aflevering/kids-denemarken
Kids: Griekenland,Kids: Griekenland,Land,Kids,Kids 5,1,35.416057,24.6485119,https://www.grotepodcastlas.nl/aflevering/kids-griekenland
Wereldwijde klimaatpolitiek,Wereldwijde klimaatpolitiek,Punt,Special,Special 15,1,,,https://www.grotepodcastlas.nl/aflevering/wereldwijde-klimaatpolitiek
Eilanden: Aruba,Eilanden: Aruba,Land,Eilanden,Eilanden 1,1,36.3416594,28.2001165,https://www.grotepodcastlas.nl/aflevering/eilanden-aruba
Kids: Duitsland,Kids: Duitsland,Land,Kids,Kids 4,1,49.5377892,7.4034929,https://www.grotepodcastlas.nl/aflevering/kids-duitsland
Kids: België,Kids: België,Land,Kids,Kids 3,1,50.950748,5.375565,https://www.grotepodcastlas.nl/aflevering/kids-belgie
Kids: Frankrijk,Kids: Frankrijk,Land,Kids,Kids 2,1,48.3293658,4.1045233,https://www.grotepodcastlas.nl/aflevering/kids-frankrijk
Kids: Italië,Kids: Italië,Land,Kids,Kids 1,1,42.143968,13.4769831,https://www.grotepodcastlas.nl/aflevering/kids-italie
750 jaar Amsterdam,750 jaar Amsterdam,Punt,Special,Special 14,1,,,https://www.grotepodcastlas.nl/aflevering/750-jaar-amsterdam
Een geopolitieke kijkwijzer van het Songfestival,Een geopolitieke kijkwijzer van het Songfestival,Punt,Special,Special 13,1,,,https://www.grotepodcastlas.nl/aflevering/een-geopolitieke-kijkwijzer-van-het-songfestival
De geografie van bier,De geografie van bier,Punt,Special,Special 12,1,,,https://www.grotepodcastlas.nl/aflevering/de-geografie-van-bier
Achter de schermen bij 3 op Reis,Achter de schermen bij 3 op Reis,Punt,Special,Special 11,1,,,https://www.grotepodcastlas.nl/aflevering/achter-de-schermen-bij-3-op-reis
De hotspots en ruïnes van de Amerikaanse Droom,De hotspots en ruïnes van de Amerikaanse Droom,Punt,Special,Special 10,1,,,https://www.grotepodcastlas.nl/aflevering/de-hotspots-en-ruines-van-de-amerikaanse-droom
Een kijkje in de cockpit van de topdiplomatie,Een kijkje in de cockpit van de topdiplomatie,Punt,Special,Special 9,1,,,https://www.grotepodcastlas.nl/aflevering/een-kijkje-in-de-cockpit-van-de-topdiplomatie
VK: Schotland,VK: Schotland,Land,Reguliere aflevering,Afl. 74,1,56.7861112,-4.1140518,https://www.grotepodcastlas.nl/aflevering/vk-schotland
VK: Noord-Ierland,VK: Noord-Ierland,Land,Reguliere aflevering,Afl. 73,1,54.5859836,-6.9591554,https://www.grotepodcastlas.nl/aflevering/vk-noord-ierland
VK: Wales,VK: Wales,Land,Reguliere aflevering,Afl. 72,1,52.2928116,-3.73893,https://www.grotepodcastlas.nl/aflevering/vk-wales
VK: Engeland,VK: Engeland,Land,Reguliere aflevering,Afl. 71,1,52.5310214,-1.2649062,https://www.grotepodcastlas.nl/aflevering/vk-engeland
Een andere kijk op toerisme,Een andere kijk op toerisme,Punt,Special,Special 8,1,,,https://www.grotepodcastlas.nl/aflevering/een-andere-kijk-op-toerisme
China's wereldambitie,China's wereldambitie,Punt,Special,Special 7,1,,,https://www.grotepodcastlas.nl/aflevering/chinas-wereldambitie
De erfenis van Pinochet,De erfenis van Pinochet,Punt,Special,Special 6,1,,,https://www.grotepodcastlas.nl/aflevering/de-erfenis-van-pinochet
Van Atatürk tot Erdoğan,Van Atatürk tot Erdoğan,Punt,Special,Special 5,1,,,https://www.grotepodcastlas.nl/aflevering/van-ataturk-tot-erdogan
Langs de nieuwe zijderoute,Langs de nieuwe zijderoute,Punt,Special,Special 4,1,,,https://www.grotepodcastlas.nl/aflevering/langs-de-nieuwe-zijderoute
De oorlog in Oekraïne,De oorlog in Oekraïne,Punt,Special,Special 3,1,,,https://www.grotepodcastlas.nl/aflevering/de-oorlog-in-oekraine
Nederland in het buitenland,Nederland in het buitenland,Punt,Special,Special 2,1,,,https://www.grotepodcastlas.nl/aflevering/nederland-in-het-buitenland
Internationale scheepvaart,Internationale scheepvaart,Punt,Special,Special 1,1,,,https://www.grotepodcastlas.nl/aflevering/internationale-scheepvaart
Colombia,Colombia,Land,Reguliere aflevering,Afl. 1,1,4.5709,-74.2973,https://www.grotepodcastlas.nl/aflevering/colombia
Zuid-Korea,South Korea,Land,Reguliere aflevering,Afl. 2,1,35.9078,127.7669,https://www.grotepodcastlas.nl/aflevering/zuid-korea
Ierland,Ireland,Land,Reguliere aflevering,Afl. 3,1,53.1424,-7.6921,https://www.grotepodcastlas.nl/aflevering/ierland
Tunesië,Tunisia,Land,Reguliere aflevering,Afl. 4,1,33.8869,9.5375,https://www.grotepodcastlas.nl/aflevering/tunesie
Kazachstan,Kazakhstan,Land,Reguliere aflevering,Afl. 5,1,48.0196,66.9237,https://www.grotepodcastlas.nl/aflevering/kazachstan
Georgië,Georgia,Land,Reguliere aflevering,Afl. 6,1,42.3154,43.3569,https://www.grotepodcastlas.nl/aflevering/georgie
Fiji,Fiji,Land,Reguliere aflevering,Afl. 7,1,-17.7134,178.065,https://www.grotepodcastlas.nl/aflevering/fiji
Barbados,Barbados,Land,Reguliere aflevering,Afl. 8,1,13.1939,-59.5432,https://www.grotepodcastlas.nl/aflevering/barbados
Zimbabwe,Zimbabwe,Land,Reguliere aflevering,Afl. 9,1,-19.0154,29.1549,https://www.grotepodcastlas.nl/aflevering/zimbabwe
Albanië,Albania,Land,Reguliere aflevering,Afl. 10,1,41.1533,20.1683,https://www.grotepodcastlas.nl/aflevering/albanie
Costa Rica,Costa Rica,Land,Reguliere aflevering,Afl. 11,1,9.7489,-83.7534,https://www.grotepodcastlas.nl/aflevering/costa-rica
Australië,Australia,Land,Reguliere aflevering,Afl. 12,1,-25.2744,133.7751,https://www.grotepodcastlas.nl/aflevering/australie
Sierra Leone,Sierra Leone,Land,Reguliere aflevering,Afl. 13,1,8.4606,-11.7799,https://www.grotepodcastlas.nl/aflevering/sierra-leone
Bangladesh,Bangladesh,Land,Reguliere aflevering,Afl. 14,1,23.685,90.3563,https://www.grotepodcastlas.nl/aflevering/bangladesh
Denemarken,Denmark,Land,Reguliere aflevering,Afl. 15,1,56.2639,9.5018,https://www.grotepodcastlas.nl/aflevering/denemarken
Paraguay,Paraguay,Land,Reguliere aflevering,Afl. 16,1,-23.4425,-58.4438,https://www.grotepodcastlas.nl/aflevering/paraguay
Verenigde Arabische Emiraten,United Arab Emirates,Land,Reguliere aflevering,Afl. 17,1,23.4241,53.8478,https://www.grotepodcastlas.nl/aflevering/verenigde-arabische-emiraten
Kameroen,Cameroon,Land,Reguliere aflevering,Afl. 18,1,3.848,11.5021,https://www.grotepodcastlas.nl/aflevering/kameroen
Slovenië,Slovenia,Land,Reguliere aflevering,Afl. 19,1,46.1512,14.9955,https://www.grotepodcastlas.nl/aflevering/slovenie
Tuvalu,Tuvalu,Land,Reguliere aflevering,Afl. 20,1,-7.1095,177.6493,https://www.grotepodcastlas.nl/aflevering/tuvalu
Haïti,Haiti,Land,Reguliere aflevering,Afl. 21,1,18.9712,-72.2852,https://www.grotepodcastlas.nl/aflevering/haiti
Laos,Laos,Land,Reguliere aflevering,Afl. 22,1,19.8563,102.4955,https://www.grotepodcastlas.nl/aflevering/laos
Tanzania,Tanzania,Land,Reguliere aflevering,Afl. 23,1,-6.369,34.8888,https://www.grotepodcastlas.nl/aflevering/tanzania
Portugal,Portugal,Land,Reguliere aflevering,Afl. 24,1,39.3999,-8.2245,https://www.grotepodcastlas.nl/aflevering/portugal
Sri Lanka,Sri Lanka,Land,Reguliere aflevering,Afl. 25,1,7.8731,80.7718,https://www.grotepodcastlas.nl/aflevering/sri-lanka
Lesotho,Lesotho,Land,Reguliere aflevering,Afl. 26,1,-29.61,28.2336,https://www.grotepodcastlas.nl/aflevering/lesotho
Guatemala,Guatemala,Land,Reguliere aflevering,Afl. 27,1,15.7835,-90.2308,https://www.grotepodcastlas.nl/aflevering/guatemala
Senegal,Senegal,Land,Reguliere aflevering,Afl. 28,1,14.4974,-14.4524,https://www.grotepodcastlas.nl/aflevering/senegal
Vaticaanstad,Vatican City,Land,Reguliere aflevering,Afl. 29,1,41.9029,12.4534,https://www.grotepodcastlas.nl/aflevering/vaticaanstad
Tadzjikistan,Tajikistan,Land,Reguliere aflevering,Afl. 30,1,38.861,71.2761,https://www.grotepodcastlas.nl/aflevering/tadzjikistan
Madagaskar,Madagascar,Land,Reguliere aflevering,Afl. 31,1,-18.7669,46.8691,https://www.grotepodcastlas.nl/aflevering/madagaskar
Saint Kitts & Nevis,Saint Kitts and Nevis,Land,Reguliere aflevering,Afl. 32,1,17.3578,-62.783,https://www.grotepodcastlas.nl/aflevering/saint-kitts-nevis
Duitsland,Germany,Land,Reguliere aflevering,Afl. 33,1,51.1657,10.4515,https://www.grotepodcastlas.nl/aflevering/duitsland
Jordanië,Jordan,Land,Reguliere aflevering,Afl. 34,1,31.24,36.51,https://www.grotepodcastlas.nl/aflevering/jordanie
Benin,Benin,Land,Reguliere aflevering,Afl. 35,1,9.3077,2.3158,https://www.grotepodcastlas.nl/aflevering/benin
Cuba,Cuba,Land,Reguliere aflevering,Afl. 36,1,21.5218,-77.7812,https://www.grotepodcastlas.nl/aflevering/cuba
Micronesië,Micronesia,Land,Reguliere aflevering,Afl. 37,1,7.4256,150.5508,https://www.grotepodcastlas.nl/aflevering/micronesie
Letland,Latvia,Land,Reguliere aflevering,Afl. 38,1,56.8796,24.6032,https://www.grotepodcastlas.nl/aflevering/letland
Brazilië,Brazil,Land,Reguliere aflevering,Afl. 39,1,-14.235,-51.9253,https://www.grotepodcastlas.nl/aflevering/brazilie
Democratische Republiek Congo,Democratic Republic of the Congo,Land,Reguliere aflevering,Afl. 40,1,-4.0383,21.7587,https://www.grotepodcastlas.nl/aflevering/democratische-republiek-congo
Noorwegen,Norway,Land,Reguliere aflevering,Afl. 41,1,60.472,8.4689,https://www.grotepodcastlas.nl/aflevering/noorwegen
Qatar,Qatar,Land,Reguliere aflevering,Afl. 42,1,25.3548,51.1839,https://www.grotepodcastlas.nl/aflevering/qatar
Seychellen,Seychelles,Land,Reguliere aflevering,Afl. 43,1,-4.6796,55.492,https://www.grotepodcastlas.nl/aflevering/seychellen
Mongolië,Mongolia,Land,Reguliere aflevering,Afl. 44,1,46.8625,103.8467,https://www.grotepodcastlas.nl/aflevering/mongolie
Bosnië-Herzegovina,Bosnia and Herzegovina,Land,Reguliere aflevering,Afl. 45,1,43.9159,17.6791,https://www.grotepodcastlas.nl/aflevering/bosnie-herzegovina
Peru,Peru,Land,Reguliere aflevering,Afl. 46,1,-9.19,-75.0152,https://www.grotepodcastlas.nl/aflevering/peru
Djibouti,Djibouti,Land,Reguliere aflevering,Afl. 47,1,11.8251,42.5903,https://www.grotepodcastlas.nl/aflevering/djibouti
Maleisië,Malaysia,Land,Reguliere aflevering,Afl. 48,1,4.2105,101.9758,https://www.grotepodcastlas.nl/aflevering/maleisie
New York City,New York City,Punt,Wereldstad,Wereldstad #1,1,40.71,-74.0,https://www.grotepodcastlas.nl/aflevering/new-york-city
Moskou,Moscow,Punt,Wereldstad,Wereldstad #2,1,55.75,37.61,https://www.grotepodcastlas.nl/aflevering/moskou
Cyprus,Cyprus,Land,Reguliere aflevering,Afl. 49,1,35.1264,33.4299,https://www.grotepodcastlas.nl/aflevering/cyprus
Zuid-Afrika,South Africa,Land,Reguliere aflevering,Afl. 50,1,-30.5595,22.9375,https://www.grotepodcastlas.nl/aflevering/zuid-afrika
Armenië,Armenia,Land,Reguliere aflevering,Afl. 51,1,40.0691,45.0382,https://www.grotepodcastlas.nl/aflevering/armenie
Drenthe,Drenthe,Punt,Provincie,Provincie #1,1,52.84,6.62,https://www.grotepodcastlas.nl/aflevering/drenthe
Noord-Holland,North Holland,Punt,Provincie,Provincie #2,1,52.64,4.88,https://www.grotepodcastlas.nl/aflevering/noord-holland
Limburg,Limburg,Punt,Provincie,Provincie #3,1,51.21,5.82,https://www.grotepodcastlas.nl/aflevering/limburg
Overijssel,Overijssel,Punt,Provincie,Provincie #4,1,52.43,6.32,https://www.grotepodcastlas.nl/aflevering/overijssel
Zeeland,Zeeland,Punt,Provincie,Provincie #5,1,51.49,3.84,https://www.grotepodcastlas.nl/aflevering/zeeland
Friesland,Friesland,Punt,Provincie,Provincie #6,1,53.16,5.79,https://www.grotepodcastlas.nl/aflevering/friesland
Noord-Brabant,North Brabant,Punt,Provincie,Provincie #7,1,51.48,5.23,https://www.grotepodcastlas.nl/aflevering/noord-brabant
Groningen,Groningen,Punt,Provincie,Provincie #8,1,53.21,6.56,https://www.grotepodcastlas.nl/aflevering/groningen
Gelderland,Gelderland,Punt,Provincie,Provincie #9,1,52.04,5.89,https://www.grotepodcastlas.nl/aflevering/gelderland
Zuid-Holland,South Holland,Punt,Provincie,Provincie #10,1,51.92,4.48,https://www.grotepodcastlas.nl/aflevering/zuid-holland
Flevoland,Flevoland,Punt,Provincie,Provincie #11,1,52.52,5.59,https://www.grotepodcastlas.nl/aflevering/flevoland
Utrecht,Utrecht,Punt,Provincie,Provincie #12,1,52.09,5.12,https://www.grotepodcastlas.nl/aflevering/utrecht
Turkije,Turkey,Land,Reguliere aflevering,Afl. 52,1,38.9637,35.2433,https://www.grotepodcastlas.nl/aflevering/turkije
Mali,Mali,Land,Reguliere aflevering,Afl. 53,1,17.5707,-3.9962,https://www.grotepodcastlas.nl/aflevering/mali
Panama,Panama,Land,Reguliere aflevering,Afl. 54,1,8.538,-80.7821,https://www.grotepodcastlas.nl/aflevering/panama
Malta,Malta,Land,Reguliere aflevering,Afl. 55,1,35.9375,14.3754,https://www.grotepodcastlas.nl/aflevering/malta
Chili,Chile,Land,Reguliere aflevering,Afl. 56,1,-35.6751,-71.543,https://www.grotepodcastlas.nl/aflevering/chili
Sao Tomé en Principe,Sao Tome and Principe,Land,Reguliere aflevering,Afl. 57,1,0.1864,6.6131,https://www.grotepodcastlas.nl/aflevering/sao-tome-en-principe
Jemen,Yemen,Land,Reguliere aflevering,Afl. 58,1,15.5527,48.5164,https://www.grotepodcastlas.nl/aflevering/jemen
Italië,Italy,Land,Reguliere aflevering,Afl. 59,1,41.8719,12.5674,https://www.grotepodcastlas.nl/aflevering/italie
Grenada,Grenada,Land,Reguliere aflevering,Afl. 60,1,12.1165,-61.679,https://www.grotepodcastlas.nl/aflevering/grenada
Myanmar,Myanmar,Land,Reguliere aflevering,Afl. 61,1,21.9162,95.956,https://www.grotepodcastlas.nl/aflevering/myanmar
Oeganda,Uganda,Land,Reguliere aflevering,Afl. 62,1,1.3733,32.2903,https://www.grotepodcastlas.nl/aflevering/oeganda
Vanuatu,Vanuatu,Land,Reguliere aflevering,Afl. 63,1,-15.3767,166.9592,https://www.grotepodcastlas.nl/aflevering/vanuatu
Canada,Canada,Land,Reguliere aflevering,Afl. 64,1,56.1304,-106.3468,https://www.grotepodcastlas.nl/aflevering/canada
Namibië,Namibia,Land,Reguliere aflevering,Afl. 65,1,-22.9576,18.4904,https://www.grotepodcastlas.nl/aflevering/namibie
Roemenië,Romania,Land,Reguliere aflevering,Afl. 66,1,45.9432,24.9668,https://www.grotepodcastlas.nl/aflevering/roemenie
Saint Lucia,Saint Lucia,Land,Reguliere aflevering,Afl. 67,1,13.9094,-60.9789,https://www.grotepodcastlas.nl/aflevering/saint-lucia
Hongkong,Hong Kong,Punt,Wereldstad,Wereldstad #3,1,22.31,114.16,https://www.grotepodcastlas.nl/aflevering/hongkong
Parijs,Paris,Punt,Wereldstad,Wereldstad #4,1,48.85,2.35,https://www.grotepodcastlas.nl/aflevering/parijs
Guinee,Guinea,Land,Reguliere aflevering,Afl. 68,1,9.9456,-9.6966,https://www.grotepodcastlas.nl/aflevering/guinee
Marshalleilanden,Marshall Islands,Land,Reguliere aflevering,Afl. 69,1,7.1315,171.1845,https://www.grotepodcastlas.nl/aflevering/marshalleilanden
Japan,Japan,Land,Reguliere aflevering,Afl. 70,1,36.2048,138.2529,https://www.grotepodcastlas.nl/aflevering/japan
Engeland,England,Punt,Reguliere aflevering,Afl. 71,1,52.35,-1.17,https://www.grotepodcastlas.nl/aflevering/engeland
Wales,Wales,Punt,Reguliere aflevering,Afl. 72,1,52.13,-3.78,https://www.grotepodcastlas.nl/aflevering/wales
Noord-Ierland,Northern Ireland,Punt,Reguliere aflevering,Afl. 73,1,54.78,-6.49,https://www.grotepodcastlas.nl/aflevering/noord-ierland
Schotland,Scotland,Punt,Reguliere aflevering,Afl. 74,1,56.49,-4.2,https://www.grotepodcastlas.nl/aflevering/schotland
Somalië,Somalia,Land,Reguliere aflevering,Afl. 75,1,5.1521,46.1996,https://www.grotepodcastlas.nl/aflevering/somalie
Nepal,Nepal,Land,Reguliere aflevering,Afl. 76,1,28.3949,84.124,https://www.grotepodcastlas.nl/aflevering/nepal
Belize,Belize,Land,Reguliere aflevering,Afl. 77,1,17.1899,-88.4976,https://www.grotepodcastlas.nl/aflevering/belize
Slowakije,Slovakia,Land,Reguliere aflevering,Afl. 78,1,48.669,19.699,https://www.grotepodcastlas.nl/aflevering/slowakije
Mozambique,Mozambique,Land,Reguliere aflevering,Afl. 79,1,-18.6657,35.5296,https://www.grotepodcastlas.nl/aflevering/mozambique
Caïro,Cairo,Punt,Wereldstad,Wereldstad #5,1,30.04,31.23,https://www.grotepodcastlas.nl/aflevering/cairo
Mumbai,Mumbai,Punt,Wereldstad,Wereldstad #6,1,19.07,72.87,https://www.grotepodcastlas.nl/aflevering/mumbai
Papoea-Nieuw-Guinea,Papua New Guinea,Land,Reguliere aflevering,Afl. 80,1,-6.3149,143.9555,https://www.grotepodcastlas.nl/aflevering/papoea-nieuw-guinea
Liechtenstein,Liechtenstein,Land,Reguliere aflevering,Afl. 81,1,47.166,9.5554,https://www.grotepodcastlas.nl/aflevering/liechtenstein
Ivoorkust,Cote d'Ivoire,Land,Reguliere aflevering,Afl. 82,1,7.54,-5.5471,https://www.grotepodcastlas.nl/aflevering/ivoorkust
Uruguay,Uruguay,Land,Reguliere aflevering,Afl. 83,1,-32.5228,-55.7658,https://www.grotepodcastlas.nl/aflevering/uruguay
Irak,Iraq,Land,Reguliere aflevering,Afl. 84,1,33.2232,43.6793,https://www.grotepodcastlas.nl/aflevering/irak
Equatoriaal-Guinea,Equatorial Guinea,Land,Reguliere aflevering,Afl. 85,1,1.6508,10.2679,https://www.grotepodcastlas.nl/aflevering/equatoriaal-guinea
Estland,Estonia,Land,Reguliere aflevering,Afl. 86,1,58.5953,25.0136,https://www.grotepodcastlas.nl/aflevering/estland
Taiwan,Taiwan,Land,Reguliere aflevering,Afl. 87,1,23.6978,120.9605,https://www.grotepodcastlas.nl/aflevering/taiwan
Algerije,Algeria,Land,Reguliere aflevering,Afl. 88,1,28.0339,1.6596,https://www.grotepodcastlas.nl/aflevering/algerije
Tonga,Tonga,Land,Reguliere aflevering,Afl. 89,1,-21.179,-175.1982,https://www.grotepodcastlas.nl/aflevering/tonga
Turkmenistan,Turkmenistan,Land,Reguliere aflevering,Afl. 90,1,38.9697,59.5563,https://www.grotepodcastlas.nl/aflevering/turkmenistan
Burundi,Burundi,Land,Reguliere aflevering,Afl. 91,1,-3.3731,29.9189,https://www.grotepodcastlas.nl/aflevering/burundi
Griekenland,Greece,Land,Reguliere aflevering,Afl. 92,1,39.0742,21.8243,https://www.grotepodcastlas.nl/aflevering/griekenland
Bahama's,Bahamas,Land,Reguliere aflevering,Afl. 93,1,25.0343,-77.3963,https://www.grotepodcastlas.nl/aflevering/bahama-s
Burkina Faso,Burkina Faso,Land,Reguliere aflevering,Afl. 94,1,12.2383,-1.5616,https://www.grotepodcastlas.nl/aflevering/burkina-faso
Luxemburg,Luxembourg,Land,Reguliere aflevering,Afl. 95,1,49.8153,6.1296,https://www.grotepodcastlas.nl/aflevering/luxemburg
Cambodja,Cambodia,Land,Reguliere aflevering,Afl. 96,1,12.5657,104.991,https://www.grotepodcastlas.nl/aflevering/cambodja
Mauritius,Mauritius,Land,Reguliere aflevering,Afl. 97,1,-20.3484,57.5522,https://www.grotepodcastlas.nl/aflevering/mauritius
Ethiopië,Ethiopia,Land,Reguliere aflevering,Afl. 98,1,9.145,40.4897,https://www.grotepodcastlas.nl/aflevering/ethiopie
Europa,Europe,Punt,Werelddeel,Werelddeel #1,1,54.52,15.25,https://www.grotepodcastlas.nl/aflevering/europa
Jamaica,Jamaica,Land,Reguliere aflevering,Afl. 99,1,18.1096,-77.2975,https://www.grotepodcastlas.nl/aflevering/jamaica
Bhutan,Bhutan,Land,Reguliere aflevering,Afl. 100,1,27.5142,90.4336,https://www.grotepodcastlas.nl/aflevering/bhutan
Servië,Serbia,Land,Reguliere aflevering,Afl. 101,1,44.0165,21.0059,https://www.grotepodcastlas.nl/aflevering/servie
Argentinië,Argentina,Land,Reguliere aflevering,Afl. 102,1,-38.4161,-63.6167,https://www.grotepodcastlas.nl/aflevering/argentinie
Oman,Oman,Land,Reguliere aflevering,Afl. 103,1,21.4735,55.9754,https://www.grotepodcastlas.nl/aflevering/oman
San Marino,San Marino,Land,Reguliere aflevering,Afl. 104,1,43.9424,12.4578,https://www.grotepodcastlas.nl/aflevering/san-marino
Filipijnen,Philippines,Land,Reguliere aflevering,Afl. 105,1,12.8797,121.774,https://www.grotepodcastlas.nl/aflevering/filipijnen
Zambia,Zambia,Land,Reguliere aflevering,Afl. 106,1,-13.1339,27.8493,https://www.grotepodcastlas.nl/aflevering/zambia
Kirgizië,Kyrgyzstan,Land,Reguliere aflevering,Afl. 107,1,41.2044,74.7661,https://www.grotepodcastlas.nl/aflevering/kirgizie
Londen,London,Punt,Wereldstad,Wereldstad #7,1,51.5,-0.12,https://www.grotepodcastlas.nl/aflevering/londen
Beijing,Beijing,Punt,Wereldstad,Wereldstad #8,1,39.9,116.4,https://www.grotepodcastlas.nl/aflevering/beijing
Mexico,Mexico,Land,Reguliere aflevering,Afl. 108,1,23.6345,-102.5528,https://www.grotepodcastlas.nl/aflevering/mexico
België,Belgium,Land,Reguliere aflevering,Afl. 109,1,50.5039,4.4699,https://www.grotepodcastlas.nl/aflevering/belgie
Soedan,Sudan,Land,Reguliere aflevering,Afl. 110,1,12.8628,30.2176,https://www.grotepodcastlas.nl/aflevering/soedan
Oostenrijk,Austria,Land,Reguliere aflevering,Afl. 111,1,47.5162,14.5501,https://www.grotepodcastlas.nl/aflevering/oostenrijk
Ecuador,Ecuador,Land,Reguliere aflevering,Afl. 112,1,-1.8312,-78.1834,https://www.grotepodcastlas.nl/aflevering/ecuador
Gabon,Gabon,Land,Reguliere aflevering,Afl. 113,1,-0.8037,11.6094,https://www.grotepodcastlas.nl/aflevering/gabon
Afghanistan,Afghanistan,Land,Reguliere aflevering,Afl. 114,1,33.9391,67.71,https://www.grotepodcastlas.nl/aflevering/afghanistan
Ghana,Ghana,Land,Reguliere aflevering,Afl. 115,1,7.9465,-1.0232,https://www.grotepodcastlas.nl/aflevering/ghana
Indonesië,Indonesia,Land,Reguliere aflevering,Afl. 116,1,-0.7893,113.9213,https://www.grotepodcastlas.nl/aflevering/indonesie
Dominica,Dominica,Land,Reguliere aflevering,Afl. 117,1,15.415,-61.371,https://www.grotepodcastlas.nl/aflevering/dominica
Istanbul,Istanbul,Punt,Wereldstad,Wereldstad #9,1,41.0,28.97,https://www.grotepodcastlas.nl/aflevering/istanbul
Seoul,Seoul,Punt,Wereldstad,Wereldstad #10,1,37.56,126.97,https://www.grotepodcastlas.nl/aflevering/seoul
Belarus,Belarus,Land,Reguliere aflevering,Afl. 118,1,53.7098,27.9534,https://www.grotepodcastlas.nl/aflevering/belarus
Niger,Niger,Land,Reguliere aflevering,Afl. 119,1,17.6078,8.0817,https://www.grotepodcastlas.nl/aflevering/niger
Nicaragua,Nicaragua,Land,Reguliere aflevering,Afl. 120,1,12.8654,-85.2072,https://www.grotepodcastlas.nl/aflevering/nicaragua
Iran,Iran,Land,Reguliere aflevering,Afl. 121,1,32.4279,53.688,https://www.grotepodcastlas.nl/aflevering/iran
Groenland,Greenland,Punt,Rafelrandjes,Rafelrandjes #1,1,71.7,-42.6,https://www.grotepodcastlas.nl/aflevering/groenland
Westelijke Sahara,Western Sahara,Punt,Rafelrandjes,Rafelrandjes #2,1,24.21,-12.88,https://www.grotepodcastlas.nl/aflevering/westelijke-sahara
Tibet,Tibet,Punt,Rafelrandjes,Rafelrandjes #3,1,31.69,88.09,https://www.grotepodcastlas.nl/aflevering/tibet
Puerto Rico,Puerto Rico,Punt,Rafelrandjes,Rafelrandjes #4,1,18.22,-66.59,https://www.grotepodcastlas.nl/aflevering/puerto-rico
Rusland,Russia,Land,Reguliere aflevering,Afl. 122,1,61.524,105.3188,https://www.grotepodcastlas.nl/aflevering/rusland
Kaapverdië,Cape Verde,Land,Reguliere aflevering,Afl. 123,1,16.0021,-24.0132,https://www.grotepodcastlas.nl/aflevering/kaapverdie
Libanon,Lebanon,Land,Reguliere aflevering,Afl. 124,1,33.8547,35.8623,https://www.grotepodcastlas.nl/aflevering/libanon
Kenia,Kenya,Land,Reguliere aflevering,Afl. 125,1,-0.0236,37.9062,https://www.grotepodcastlas.nl/aflevering/kenia
Nauru,Nauru,Land,Reguliere aflevering,Afl. 126,1,-0.5228,166.9315,https://www.grotepodcastlas.nl/aflevering/nauru
Zweden,Sweden,Land,Reguliere aflevering,Afl. 127,1,60.1282,18.6435,https://www.grotepodcastlas.nl/aflevering/zweden
Libië,Libya,Land,Reguliere aflevering,Afl. 128,1,26.3351,17.2283,https://www.grotepodcastlas.nl/aflevering/libie
Oost-Timor,East Timor,Land,Reguliere aflevering,Afl. 129,1,-8.8742,125.7275,https://www.grotepodcastlas.nl/aflevering/oost-timor
Venezuela,Venezuela,Land,Reguliere aflevering,Afl. 130,1,6.4238,-66.5897,https://www.grotepodcastlas.nl/aflevering/venezuela
eSwatini,Eswatini,Land,Reguliere aflevering,Afl. 131,1,-26.5225,31.4659,https://www.grotepodcastlas.nl/aflevering/eswatini
Noord-Korea,North Korea,Land,Reguliere aflevering,Afl. 132,1,40.3399,127.5101,https://www.grotepodcastlas.nl/aflevering/noord-korea
Afrika,Africa,Punt,Werelddeel,Werelddeel #2,1,8.78,34.5,https://www.grotepodcastlas.nl/aflevering/afrika
Noord-Macedonië,North Macedonia,Land,Reguliere aflevering,Afl. 133,1,41.6086,21.7453,https://www.grotepodcastlas.nl/aflevering/noord-macedonie
Bahrein,Bahrain,Land,Reguliere aflevering,Afl. 134,1,26.0667,50.5577,https://www.grotepodcastlas.nl/aflevering/bahrein
Togo,Togo,Land,Reguliere aflevering,Afl. 135,1,8.6195,0.8248,https://www.grotepodcastlas.nl/aflevering/togo
Thailand,Thailand,Land,Reguliere aflevering,Afl. 136,1,15.87,100.9925,https://www.grotepodcastlas.nl/aflevering/thailand
Italië,Italy,Punt,Kids,Kids #1,1,41.87,12.56,https://www.grotepodcastlas.nl/aflevering/kids-italie
Frankrijk,France,Punt,Kids,Kids #2,1,46.22,2.21,https://www.grotepodcastlas.nl/aflevering/kids-frankrijk
België,Belgium,Punt,Kids,Kids #3,1,50.5,4.46,https://www.grotepodcastlas.nl/aflevering/kids-belgie
Duitsland,Germany,Punt,Kids,Kids #4,1,51.16,10.45,https://www.grotepodcastlas.nl/aflevering/kids-duitsland
Aruba,Aruba,Punt,Eilanden,Eilanden #1,1,12.52,-69.96,https://www.grotepodcastlas.nl/aflevering/aruba
Griekenland,Greece,Punt,Kids,Kids #5,1,39.07,21.82,https://www.grotepodcastlas.nl/aflevering/kids-griekenland
Denemarken,Denmark,Punt,Kids,Kids #6,1,56.26,9.5,https://www.grotepodcastlas.nl/aflevering/kids-denemarken
Saba,Saba,Punt,Eilanden,Eilanden #2,1,17.63,-63.23,https://www.grotepodcastlas.nl/aflevering/saba
Oostenrijk,Austria,Punt,Kids,Kids #7,1,47.51,14.55,https://www.grotepodcastlas.nl/aflevering/kids-oostenrijk
Spanje,Spain,Punt,Kids,Kids #8,1,40.46,-3.74,https://www.grotepodcastlas.nl/aflevering/kids-spanje
Sint Maarten,Sint Maarten,Punt,Eilanden,Eilanden #3,1,18.04,-63.05,https://www.grotepodcastlas.nl/aflevering/sint-maarten
Verenigd Koninkrijk,United Kingdom,Punt,Kids,Kids #9,1,55.37,-3.43,https://www.grotepodcastlas.nl/aflevering/kids-verenigd-koninkrijk
Nederland,Netherlands,Punt,Kids,Kids #10,1,52.13,5.29,https://www.grotepodcastlas.nl/aflevering/kids-nederland
Bonaire,Bonaire,Punt,Eilanden,Eilanden #4,1,12.17,-68.23,https://www.grotepodcastlas.nl/aflevering/bonaire
Sint Eustatius,Sint Eustatius,Punt,Eilanden,Eilanden #5,1,17.48,-62.97,https://www.grotepodcastlas.nl/aflevering/sint-eustatius
Curaçao,Curaçao,Punt,Eilanden,Eilanden #6,1,12.16,-68.99,https://www.grotepodcastlas.nl/aflevering/curacao
Berlijn,Berlin,Punt,Wereldstad,Wereldstad #11,1,52.52,13.4,https://www.grotepodcastlas.nl/aflevering/berlijn
Rio de Janeiro,Rio de Janeiro,Punt,Wereldstad,Wereldstad #12,1,-22.9,-43.2,https://www.grotepodcastlas.nl/aflevering/rio-de-janeiro
India,India,Land,Reguliere aflevering,Afl. 137,1,20.5937,78.9629,https://www.grotepodcastlas.nl/aflevering/india
Zuid-Amerika,South America,Punt,Werelddeel,Werelddeel #3,1,-14.6,-57.66,https://www.grotepodcastlas.nl/aflevering/zuid-amerika
Polen,Poland,Land,Reguliere aflevering,Afl. 138,1,51.9194,19.1451,https://www.grotepodcastlas.nl/aflevering/polen
Kiribati,Kiribati,Land,Reguliere aflevering,Afl. 139,1,-3.3704,-168.734,https://www.grotepodcastlas.nl/aflevering/kiribati
Republiek Congo,Republic of Congo,Land,Reguliere aflevering,Afl. 140,1,-0.228,15.8277,https://www.grotepodcastlas.nl/aflevering/republiek-congo
Suriname,Suriname,Land,Reguliere aflevering,Afl. 141,1,3.9193,-56.0278,https://www.grotepodcastlas.nl/aflevering/suriname
Andorra,Andorra,Land,Reguliere aflevering,Afl. 142,1,42.5063,1.5218,https://www.grotepodcastlas.nl/aflevering/andorra
Syrië,Syria,Land,Reguliere aflevering,Afl. 143,1,34.8021,38.9968,https://www.grotepodcastlas.nl/aflevering/syrie
Nieuw-Zeeland,New Zealand,Land,Reguliere aflevering,Afl. 144,1,-40.9006,174.886,https://www.grotepodcastlas.nl/aflevering/nieuw-zeeland
Malawi,Malawi,Land,Reguliere aflevering,Afl. 145,1,-13.2543,34.3015,https://www.grotepodcastlas.nl/aflevering/malawi
Rome,Rome,Punt,Wereldstad,Wereldstad #13,1,41.9,12.49,https://www.grotepodcastlas.nl/aflevering/rome
Los Angeles,Los Angeles,Punt,Wereldstad,Wereldstad #14,1,34.05,-118.24,https://www.grotepodcastlas.nl/aflevering/los-angeles
Moldavië,Moldova,Land,Reguliere aflevering,Afl. 146,1,47.4116,28.3699,https://www.grotepodcastlas.nl/aflevering/moldavie
Guinee-Bissau,Guinea-Bissau,Land,Reguliere aflevering,Afl. 147,1,11.8037,-15.1804,https://www.grotepodcastlas.nl/aflevering/guinee-bissau
Pakistan,Pakistan,Land,Reguliere aflevering,Afl. 148,1,30.3753,69.3451,https://www.grotepodcastlas.nl/aflevering/pakistan
Lapland,Lapland,Punt,Rafelrandjes,Rafelrandjes #5,1,67.9,26.5,https://www.grotepodcastlas.nl/aflevering/lapland
Molukken,Maluku,Punt,Rafelrandjes,Rafelrandjes #6,1,-3.0,130.0,https://www.grotepodcastlas.nl/aflevering/molukken
Koerdistan,Kurdistan,Punt,Rafelrandjes,Rafelrandjes #7,1,37.0,43.0,https://www.grotepodcastlas.nl/aflevering/koerdistan
Baskenland,Basque Country,Punt,Rafelrandjes,Rafelrandjes #8,1,43.0,-2.5,https://www.grotepodcastlas.nl/aflevering/baskenland
El Salvador,El Salvador,Land,Reguliere aflevering,Afl. 149,1,13.7942,-88.8965,https://www.grotepodcastlas.nl/aflevering/el-salvador
Hongarije,Hungary,Land,Reguliere aflevering,Afl. 150,1,47.1625,19.5033,https://www.grotepodcastlas.nl/aflevering/hongarije
Saint Vincent en de Grenadines,Saint Vincent and the Grenadines,Land,Reguliere aflevering,Afl. 151,1,13.2528,-61.1971,https://www.grotepodcastlas.nl/aflevering/saint-vincent-en-de-grenadines
Nigeria,Nigeria,Land,Reguliere aflevering,Afl. 152,1,9.082,8.6753,https://www.grotepodcastlas.nl/aflevering/nigeria
